{"longitude": 72.8573888, "heading": 0, "pitch": 0.001131754252128303, "timestamp": 1554421365.034315, "roll": 0.0012872641673311591, "yaw": 0.002225609729066491, "latitude": 19.1715984, "altitude": -0.224}
{"longitude": 72.8573888, "heading": 0, "pitch": 0.0013385796919465065, "timestamp": 1554421366.038898, "roll": 0.0015060314908623695, "yaw": 0.002332173055037856, "latitude": 19.1715984, "altitude": -0.287}
{"longitude": 72.8573888, "heading": 0, "pitch": 0.0015278629725798965, "timestamp": 1554421367.0491948, "roll": 0.0017191332299262285, "yaw": 0.002450942061841488, "latitude": 19.1715984, "altitude": -0.3}
{"longitude": 72.8573889, "heading": 0, "pitch": 0.0015775874489918351, "timestamp": 1554421368.0629034, "roll": 0.0017949051689356565, "yaw": 0.0025871875695884228, "latitude": 19.1715983, "altitude": -0.006}
{"longitude": 72.8573889, "heading": 0, "pitch": 0.0014824776444584131, "timestamp": 1554421369.0753036, "roll": 0.0017346134409308434, "yaw": 0.0027461987920105457, "latitude": 19.1715983, "altitude": 0.001}
{"longitude": 72.8573889, "heading": 0, "pitch": 0.0013442609924823046, "timestamp": 1554421370.080171, "roll": 0.0016177973011508584, "yaw": 0.002869206480681896, "latitude": 19.1715983, "altitude": 0.038}
{"longitude": 72.8573889, "heading": 0, "pitch": 0.0012444643070921302, "timestamp": 1554421371.098365, "roll": 0.001532931113615632, "yaw": 0.002987400395795703, "latitude": 19.1715983, "altitude": 0.067}
{"longitude": 72.8573889, "heading": 0, "pitch": 0.001180877210572362, "timestamp": 1554421372.1046178, "roll": 0.0014769163681194186, "yaw": 0.0031043891794979572, "latitude": 19.1715983, "altitude": 0.088}
{"longitude": 72.8573889, "heading": 0, "pitch": 0.0012027929769828916, "timestamp": 1554421373.121504, "roll": 0.0014701017644256353, "yaw": 0.003223951905965805, "latitude": 19.1715983, "altitude": 0.093}
{"longitude": 72.8573889, "heading": 0, "pitch": 0.0012328714365139604, "timestamp": 1554421374.138872, "roll": 0.00145894440356642, "yaw": 0.0033480245620012283, "latitude": 19.1715983, "altitude": -0.001}
{"longitude": 72.8573889, "heading": 0, "pitch": 0.0012732349568977952, "timestamp": 1554421375.1567607, "roll": 0.0014893347397446632, "yaw": 0.0034457354340702295, "latitude": 19.1715983, "altitude": 0.001}
{"longitude": 72.8573889, "heading": 0, "pitch": 0.001317712478339672, "timestamp": 1554421376.1745312, "roll": 0.0015182493953034282, "yaw": 0.0035718558356165886, "latitude": 19.1715983, "altitude": 0.053}
{"longitude": 72.8573889, "heading": 0, "pitch": 0.0013625792926177382, "timestamp": 1554421377.1925673, "roll": 0.0015377746894955635, "yaw": 0.0036775986663997173, "latitude": 19.1715983, "altitude": 0.1}
{"longitude": 72.8573889, "heading": 0, "pitch": 0.001396114588715136, "timestamp": 1554421378.209691, "roll": 0.0015713865868747234, "yaw": 0.0037862390745431185, "latitude": 19.1715983, "altitude": 0.116}
{"longitude": 72.8573889, "heading": 0, "pitch": 0.0014168564230203629, "timestamp": 1554421379.2273731, "roll": 0.0016208899905905128, "yaw": 0.003918765112757683, "latitude": 19.1715983, "altitude": 0.151}
{"longitude": 72.857389, "heading": 0, "pitch": 0.0014411569572985172, "timestamp": 1554421380.2433877, "roll": 0.001670308643952012, "yaw": 0.004053542390465736, "latitude": 19.1715982, "altitude": 0.006}
{"longitude": 72.857389, "heading": 0, "pitch": 0.0014618148561567068, "timestamp": 1554421381.252517, "roll": 0.0017069533932954073, "yaw": 0.004204772412776947, "latitude": 19.1715982, "altitude": 0.013}
{"longitude": 72.857389, "heading": 0, "pitch": 0.001487771631218493, "timestamp": 1554421382.2658858, "roll": 0.0017416850896552205, "yaw": 0.004329510498791933, "latitude": 19.1715982, "altitude": 0.003}
{"longitude": 72.857389, "heading": 0, "pitch": 0.0015214382437989116, "timestamp": 1554421383.2867174, "roll": 0.001776248449459672, "yaw": 0.00447071110829711, "latitude": 19.1715982, "altitude": 0.007}
{"longitude": 72.857389, "heading": 0, "pitch": 0.0015513179823756218, "timestamp": 1554421384.2998176, "roll": 0.001810840331017971, "yaw": 0.004670896101742983, "latitude": 19.1715982, "altitude": 0.014}
{"longitude": 72.857389, "heading": 0, "pitch": 0.001574306865222752, "timestamp": 1554421385.3093739, "roll": 0.0018512523965910077, "yaw": 0.004789670929312706, "latitude": 19.1715982, "altitude": 0.014}
{"longitude": 72.857389, "heading": 0, "pitch": 0.0016042401548475027, "timestamp": 1554421386.316029, "roll": 0.001856159302406013, "yaw": 0.004933249671012163, "latitude": 19.1715982, "altitude": 0.01}
{"longitude": 72.857389, "heading": 0, "pitch": 0.0016301657306030393, "timestamp": 1554421387.3207622, "roll": 0.0018892490770667791, "yaw": 0.0050897253677248955, "latitude": 19.1715982, "altitude": -0.057}
{"longitude": 72.857389, "heading": 0, "pitch": 0.0016760893631726503, "timestamp": 1554421388.325216, "roll": 0.0019264164147898555, "yaw": 0.005246721673756838, "latitude": 19.1715982, "altitude": -0.147}
{"longitude": 72.857389, "heading": 0, "pitch": 0.0016967994160950184, "timestamp": 1554421389.330752, "roll": 0.001933534862473607, "yaw": 0.005415462423115969, "latitude": 19.1715982, "altitude": -0.213}
{"longitude": 72.857389, "heading": 0, "pitch": 0.0017355696763843298, "timestamp": 1554421390.3356707, "roll": 0.0019538456108421087, "yaw": 0.0055724745616316795, "latitude": 19.1715982, "altitude": -0.251}
{"longitude": 72.857389, "heading": 0, "pitch": 0.0017813552403822541, "timestamp": 1554421391.3408322, "roll": 0.002008862094953656, "yaw": 0.005717189516872168, "latitude": 19.1715982, "altitude": -0.286}
{"longitude": 72.857389, "heading": 0, "pitch": 0.0018144709756597877, "timestamp": 1554421392.3460627, "roll": 0.0020740728359669447, "yaw": 0.005885459948331118, "latitude": 19.1715982, "altitude": -0.013}
{"longitude": 72.857389, "heading": 0, "pitch": 0.0018500644946470857, "timestamp": 1554421393.3508482, "roll": 0.0021292846649885178, "yaw": 0.006045663729310036, "latitude": 19.1715982, "altitude": 0.01}
{"longitude": 72.857389, "heading": 0, "pitch": 0.0018629943951964378, "timestamp": 1554421394.3556871, "roll": 0.0021860613487660885, "yaw": 0.006216427311301231, "latitude": 19.1715982, "altitude": 0.064}
{"longitude": 72.857389, "heading": 0, "pitch": 0.0019013741984963417, "timestamp": 1554421395.3602734, "roll": 0.0022154059261083603, "yaw": 0.006367076188325882, "latitude": 19.1715982, "altitude": 0.096}
{"longitude": 72.857389, "heading": 0, "pitch": 0.001943852286785841, "timestamp": 1554421396.3652294, "roll": 0.0022180916275829077, "yaw": 0.006534867454320192, "latitude": 19.1715982, "altitude": 0.136}
{"longitude": 72.8573891, "heading": 0, "pitch": 0.00198366679251194, "timestamp": 1554421397.3711932, "roll": 0.0022278965916484594, "yaw": 0.006729012355208397, "latitude": 19.1715982, "altitude": 0.152}
{"longitude": 72.8573891, "heading": 0, "pitch": 0.002016126411035657, "timestamp": 1554421398.3794196, "roll": 0.002255226019769907, "yaw": 0.006922497879713774, "latitude": 19.1715982, "altitude": 0.011}
{"longitude": 72.8573891, "heading": 0, "pitch": 0.002045626286417246, "timestamp": 1554421399.3843715, "roll": 0.0022788522765040398, "yaw": 0.0070932041853666306, "latitude": 19.1715982, "altitude": -0.054}
{"longitude": 72.8573891, "heading": 0, "pitch": 0.0020803012885153294, "timestamp": 1554421400.3907423, "roll": 0.0022789989598095417, "yaw": 0.007255586329847574, "latitude": 19.1715982, "altitude": -0.112}
{"longitude": 72.8573891, "heading": 0, "pitch": 0.0021068460773676634, "timestamp": 1554421401.3969212, "roll": 0.0022970177233219147, "yaw": 0.007440635468810797, "latitude": 19.1715981, "altitude": -0.142}
{"longitude": 72.8573891, "heading": 0, "pitch": 0.002157709328457713, "timestamp": 1554421402.4078476, "roll": 0.002349817892536521, "yaw": 0.007616582326591015, "latitude": 19.1715981, "altitude": -0.173}
{"longitude": 72.8573891, "heading": 0, "pitch": 0.0022049667313694954, "timestamp": 1554421403.4128757, "roll": 0.0023919071536511183, "yaw": 0.007793936412781477, "latitude": 19.1715981, "altitude": -0.203}
{"longitude": 72.8573891, "heading": 0, "pitch": 0.00223789201118052, "timestamp": 1554421404.4184868, "roll": 0.0024329794105142355, "yaw": 0.007999615743756294, "latitude": 19.1715981, "altitude": -0.005}
{"longitude": 72.8573891, "heading": 0, "pitch": 0.002286286326125264, "timestamp": 1554421405.4242606, "roll": 0.002502514747902751, "yaw": 0.008154780603945255, "latitude": 19.1715981, "altitude": 0.02}
